[{"name":"Stoup","address":"1108 NW 52nd St, Seattle, WA 98107","latitude":"47.6666891","longitude":"-122.3711647","website":"http://www.stoupbrewing.com/"},{"name":"Hale's Ales","address":"4301 Leary Way NW, Seattle, WA 98107","latitude":"47.6591666","longitude":"-122.3655939","website":"http://halesbrewery.com/"},{"name":"Maritime Pacific Brewing Company","address":"1111 NW Ballard Way, Seattle, WA 98107","latitude":"47.6627303","longitude":"-122.3717322","website":"http://maritimebrewery.com/"},{"name":"NW Peaks","address":"4818 17th Ave NW, Seattle, WA 98107","latitude":"47.664183","longitude":"-122.378611","website":"http://www.nwpeaksbrewery.com/"},{"name":"Hilliard's Beer","address":"1550 NW 49th St, Seattle, WA 98107","latitude":"47.6645442","longitude":"-122.3780257","website":"http://www.hilliardsbeer.com/"},{"name":"Rueben's Brews","address":"5010 14th Ave NW, Seattle, WA 98107","latitude":"47.6654092","longitude":"-122.3730691","website":"http://www.reubensbrews.com/"},{"name":"Peddler Brewing","address":"1514 NW Leary Way, Seattle, WA 98107","latitude":"47.6638753","longitude":"-122.377054","website":"http://www.peddlerbrewing.com/"},{"name":"Populuxe Brewing","address":"826B NW 49th St, Seattle, WA 98107","latitude":"47.6645364","longitude":"-122.3680571","website":"http://www.populuxebrewing.com/"},{"name":"Bad Jimmy's Brewing Co.","address":"B, 4358 Leary Way NW, Seattle, WA 98107","latitude":"47.6604013","longitude":"-122.3654714","website":"http://www.badjimmysbrewingco.com/"},{"name":"Lucky Envelope","address":"907 NW 50th St, Seattle, WA 98107","latitude":"47.6647949","longitude":"-122.36907","website":"http://www.luckyenvelopebrewing.com/"}]